<?xml version="1.0" encoding="utf-8"?>
<Radars>
  <Radar Name="Acapulco MSSR" Type="SSR_ModeS" Elevation="46" MaxRange="200">
    <Lat>16.757441</Lat>
    <Long>-99.745702</Long>
  </Radar>

  <Radar Name="Leon MSSR" Type="SSR_ModeS" Elevation="5986" MaxRange="200">
    <Lat>20.993208</Lat>
    <Long>-101.477136</Long>
  </Radar>

  <Radar Name="Cerro Gordo MSSR" Type="SSR_ModeS" Elevation="5986" MaxRange="200">
    <Lat>19.754342</Lat>
    <Long>-98.826084</Long>
  </Radar>
  <Radar Name="Cerro Gordo ADSB" Type="ADSB" Elevation="5986" MaxRange="200">
    <Lat>19.754342</Lat>
    <Long>-98.826084</Long>
  </Radar>

  <Radar Name="Ciudad del Carmen ADSB" Type="ADSB" Elevation="5986" MaxRange="200">
    <Lat>18.648267</Lat>
    <Long>-91.800495</Long>
  </Radar>

  <Radar Name="Cerro La Catedral ADSB" Type="ADSB" Elevation="12143" MaxRange="200">
    <Lat>19.550079</Lat>
    <Long>-99.52061</Long>
  </Radar>

  <Radar Name="Cerro El Potosí MSSR" Type="SSR_ModeS" Elevation="12235" MaxRange="250">
    <Lat>24.871446</Lat>
    <Long>-100.232808</Long>
  </Radar>
  <Radar Name="Cerro El Potosí ADSB" Type="ADSB" Elevation="12235" MaxRange="250">
    <Lat>24.871446</Lat>
    <Long>-100.232808</Long>
  </Radar>

  <Radar Name="Cerro Las Rusias MSSR" Type="SSR_ModeS" Elevation="9554" MaxRange="200">
    <Lat>23.747818</Lat>
    <Long>-105.53425</Long>
  </Radar>

  <Radar Name="Culiacan MSSR" Type="SSR_ModeS" Elevation="135" MaxRange="200">
    <Lat>24.770961</Lat>
    <Long>-107.47406</Long>
  </Radar>

  <Radar Name="Cancun Primario" Type="PRI" Elevation="52" MaxRange="50">
    <Lat>21.047133</Lat>
    <Long>-86.879846</Long>
  </Radar>
  <Radar Name="Cancun MSSR" Type="SSR_ModeS" Elevation="52" MaxRange="200">
    <Lat>21.047133</Lat>
    <Long>-86.879846</Long>
  </Radar>

  <Radar Name="Guadalajara Primario" Type="PRI" Elevation="5046" MaxRange="50">
    <Lat>20.53284</Lat>
    <Long>-103.309975</Long>
  </Radar>
  <Radar Name="Guadalajara MSSR" Type="SSR_ModeS" Elevation="5046" MaxRange="200">
    <Lat>20.53284</Lat>
    <Long>-103.309975</Long>
  </Radar>

  <Radar Name="Hermosillo MSSR" Type="SSR_ModeS" Elevation="657" MaxRange="200">
    <Lat>29.080162</Lat>
    <Long>-111.061659</Long>
  </Radar>

  <Radar Name="La Paz MSSR" Type="SSR_ModeS" Elevation="99" MaxRange="200">
    <Lat>24.052608</Lat>
    <Long>-110.362777</Long>
  </Radar>

  <Radar Name="Cerro Los Gallos MSSR" Type="SSR_ModeS" Elevation="7720" MaxRange="200">
    <Lat>21.659909</Lat>
    <Long>-102.227859</Long>
  </Radar>
  <Radar Name="Cerro Los Gallos ADSB" Type="ADSB" Elevation="7720" MaxRange="200">
    <Lat>21.659909</Lat>
    <Long>-102.227859</Long>
  </Radar>

  <Radar Name="Los Mochis MSSR" Type="SSR_ModeS" Elevation="46" MaxRange="200">
    <Lat>25.687797</Lat>
    <Long>-109.074658</Long>
  </Radar>

  <Radar Name="Los Mochis MSSR" Type="SSR_ModeS" Elevation="46" MaxRange="200">
    <Lat>20.940288</Lat>
    <Long>-89.652717</Long>
  </Radar>

  <Radar Name="Monterrey Primario" Type="PRI" Elevation="1306" MaxRange="30">
    <Lat>25.790521</Lat>
    <Long>-100.107565</Long>
  </Radar>
  <Radar Name="Monterrey MSSR" Type="SSR_ModeS" Elevation="1306" MaxRange="250">
    <Lat>25.790521</Lat>
    <Long>-100.107565</Long>
  </Radar>
  <Radar Name="Monterrey ADSB" Type="ADSB" Elevation="1306" MaxRange="250">
    <Lat>25.790521</Lat>
    <Long>-100.107565</Long>
  </Radar>

  <Radar Name="Cerro del Penon Primario" Type="PRI" Elevation="7530" MaxRange="40">
    <Lat>19.440812</Lat>
    <Long>-99.083347</Long>
  </Radar>
  <Radar Name="Cerro del Penon MSSR" Type="SSR_ModeS" Elevation="7530" MaxRange="200">
    <Lat>19.440812</Lat>
    <Long>-99.083347</Long>
  </Radar>
  <Radar Name="Cerro del Penon ADSB" Type="ADSB" Elevation="7530" MaxRange="200">
    <Lat>19.440812</Lat>
    <Long>-99.083347</Long>
  </Radar>

  <Radar Name="Penasco MSSR" Type="SSR_ModeS" Elevation="204" MaxRange="200">
    <Lat>31.299555</Lat>
    <Long>-113.547687</Long>
  </Radar>
  <Radar Name="Penasco ADSB" Type="ADSB" Elevation="204" MaxRange="200">
    <Lat>31.299555</Lat>
    <Long>-113.547687</Long>
  </Radar>

  <Radar Name="Puerto Vallarta MSSR" Type="SSR_ModeS" Elevation="53" MaxRange="200">
    <Lat>20.686676</Lat>
    <Long>-105.240463</Long>
  </Radar>

  <Radar Name="Cerro Santa Eulalia MSSR" Type="SSR_ModeS" Elevation="6933" MaxRange="250">
    <Lat>28.620317</Lat>
    <Long>-105.866048</Long>
  </Radar>

  <Radar Name="Los Cabos MSSR" Type="SSR_ModeS" Elevation="6933" MaxRange="200">
    <Lat>23.153229</Lat>
    <Long>-109.72329</Long>
  </Radar>

  <Radar Name="Tampico MSSR" Type="SSR_ModeS" Elevation="110" MaxRange="250">
    <Lat>22.283734</Lat>
    <Long>-97.863327</Long>
  </Radar>

  <Radar Name="Tuxtla MSSR" Type="SSR_ModeS" Elevation="1521" MaxRange="250">
    <Lat>16.563916</Lat>
    <Long>-93.015379</Long>
  </Radar>

  <Radar Name="Tijuana Primario" Type="PRI" Elevation="517" MaxRange="50">
    <Lat>32.539045</Lat>
    <Long>-116.97821</Long>
  </Radar>
  <Radar Name="Tijuana MSSR" Type="SSR_ModeS" Elevation="517" MaxRange="200">
    <Lat>32.539045</Lat>
    <Long>-116.97821</Long>
  </Radar>

  <Radar Name="Toluca Primario" Type="PRI" Elevation="8496" MaxRange="30">
    <Lat>19.336215</Lat>
    <Long>-99.570331</Long>
  </Radar>
  <Radar Name="Toluca MSSR" Type="SSR_ModeS" Elevation="8496" MaxRange="200">
    <Lat>19.336215</Lat>
    <Long>-99.570331</Long>
  </Radar>
  <Radar Name="Toluca ADSB" Type="ADSB" Elevation="8496" MaxRange="200">
    <Lat>19.336215</Lat>
    <Long>-99.570331</Long>
  </Radar>

  <Radar Name="Veracruz MSSR" Type="SSR_ModeS" Elevation="120" MaxRange="200">
    <Lat>19.139191</Lat>
    <Long>-96.192067</Long>
  </Radar>

  <Radar Name="Villahermosa MSSR" Type="SSR_ModeS" Elevation="76" MaxRange="200">
    <Lat>17.991352</Lat>
    <Long>-92.810148</Long>
  </Radar>

  <Radar Name="MMMX SMR" Type="SMR" Elevation="7316" MaxRange="10">
    <Lat>19.430379</Lat>
    <Long>-99.069947</Long>
  </Radar>
</Radars>