<?xml version="1.0" encoding="utf-8"?>
<Radars>
  <Radar Name="Acapulco MSSR" Type="SSR_ModeS" Elevation="166" MaxRange="250">
    <Lat>16.757441</Lat>
    <Long>-99.745702</Long>
  </Radar>

  <Radar Name="Leon MSSR" Type="SSR_ModeS" Elevation="6106" MaxRange="250">
    <Lat>20.993208</Lat>
    <Long>-101.477136</Long>
  </Radar>

  <Radar Name="Cerro Gordo MSSR" Type="SSR_ModeS" Elevation="6106" MaxRange="250">
    <Lat>19.754342</Lat>
    <Long>-98.826084</Long>
  </Radar>

  <Radar Name="Cerro El Potosí MSSR" Type="SSR_ModeS" Elevation="12335" MaxRange="250">
    <Lat>24.871446</Lat>
    <Long>-100.232808</Long>
  </Radar>

  <Radar Name="Cerro Las Rusias MSSR" Type="SSR_ModeS" Elevation="9674" MaxRange="250">
    <Lat>23.747818</Lat>
    <Long>-105.53425</Long>
  </Radar>

  <Radar Name="Culiacan MSSR" Type="SSR_ModeS" Elevation="255" MaxRange="250">
    <Lat>24.770961</Lat>
    <Long>-107.47406</Long>
  </Radar>

  <Radar Name="Cancun Primario" Type="PRI" Elevation="172" MaxRange="60">
    <Lat>21.047133</Lat>
    <Long>-86.879846</Long>
  </Radar>
  <Radar Name="Cancun MSSR" Type="SSR_ModeS" Elevation="172" MaxRange="250">
    <Lat>21.047133</Lat>
    <Long>-86.879846</Long>
  </Radar>

  <Radar Name="Guadalajara Primario" Type="PRI" Elevation="5166" MaxRange="50">
    <Lat>20.53284</Lat>
    <Long>-103.309975</Long>
  </Radar>
  <Radar Name="Guadalajara MSSR" Type="SSR_ModeS" Elevation="5166" MaxRange="250">
    <Lat>20.53284</Lat>
    <Long>-103.309975</Long>
  </Radar>

  <Radar Name="Hermosillo MSSR" Type="SSR_ModeS" Elevation="777" MaxRange="250">
    <Lat>29.080162</Lat>
    <Long>-111.061659</Long>
  </Radar>

  <Radar Name="La Paz MSSR" Type="SSR_ModeS" Elevation="219" MaxRange="250">
    <Lat>24.052608</Lat>
    <Long>-110.362777</Long>
  </Radar>

  <Radar Name="Cerro Los Gallos MSSR" Type="SSR_ModeS" Elevation="7840" MaxRange="250">
    <Lat>21.659909</Lat>
    <Long>-102.227859</Long>
  </Radar>

  <Radar Name="Los Mochis MSSR" Type="SSR_ModeS" Elevation="166" MaxRange="250">
    <Lat>25.687797</Lat>
    <Long>-109.074658</Long>
  </Radar>

  <Radar Name="Mérida MSSR" Type="SSR_ModeS" Elevation="188" MaxRange="250">
    <Lat>20.940288</Lat>
    <Long>-89.652717</Long>
  </Radar>

  <Radar Name="Monterrey Primario" Type="PRI" Elevation="1426" MaxRange="30">
    <Lat>25.790521</Lat>
    <Long>-100.107565</Long>
  </Radar>
  <Radar Name="Monterrey MSSR" Type="SSR_ModeS" Elevation="1426" MaxRange="250">
    <Lat>25.790521</Lat>
    <Long>-100.107565</Long>
  </Radar>

  <Radar Name="Cerro del Penon Primario" Type="PRI" Elevation="7650" MaxRange="40">
    <Lat>19.440812</Lat>
    <Long>-99.083347</Long>
  </Radar>
  <Radar Name="Cerro del Penon MSSR" Type="SSR_ModeS" Elevation="7650" MaxRange="250">
    <Lat>19.440812</Lat>
    <Long>-99.083347</Long>
  </Radar>

  <Radar Name="Penasco MSSR" Type="SSR_ModeS" Elevation="324" MaxRange="250">
    <Lat>31.299555</Lat>
    <Long>-113.547687</Long>
  </Radar>

  <Radar Name="Vallarta MSSR" Type="SSR_ModeS" Elevation="173" MaxRange="250">
    <Lat>20.686676</Lat>
    <Long>-105.240463</Long>
  </Radar>

  <Radar Name="Cerro Santa Eulalia MSSR" Type="SSR_ModeS" Elevation="7153" MaxRange="250">
    <Lat>28.620317</Lat>
    <Long>-105.866048</Long>
  </Radar>

  <Radar Name="Los Cabos MSSR" Type="SSR_ModeS" Elevation="529" MaxRange="250">
    <Lat>23.153229</Lat>
    <Long>-109.72329</Long>
  </Radar>

  <Radar Name="Tampico MSSR" Type="SSR_ModeS" Elevation="230" MaxRange="250">
    <Lat>22.283734</Lat>
    <Long>-97.863327</Long>
  </Radar>

  <Radar Name="Tuxtla MSSR" Type="SSR_ModeS" Elevation="1641" MaxRange="250">
    <Lat>16.563916</Lat>
    <Long>-93.015379</Long>
  </Radar>

  <Radar Name="Tijuana Primario" Type="PRI" Elevation="637" MaxRange="50">
    <Lat>32.539045</Lat>
    <Long>-116.97821</Long>
  </Radar>
  <Radar Name="Tijuana MSSR" Type="SSR_ModeS" Elevation="637" MaxRange="250">
    <Lat>32.539045</Lat>
    <Long>-116.97821</Long>
  </Radar>

  <Radar Name="Toluca Primario" Type="PRI" Elevation="8616" MaxRange="30">
    <Lat>19.336215</Lat>
    <Long>-99.570331</Long>
  </Radar>
  <Radar Name="Toluca MSSR" Type="SSR_ModeS" Elevation="8616" MaxRange="250">
    <Lat>19.336215</Lat>
    <Long>-99.570331</Long>
  </Radar>

  <Radar Name="Veracruz MSSR" Type="SSR_ModeS" Elevation="240" MaxRange="250">
    <Lat>19.139191</Lat>
    <Long>-96.192067</Long>
  </Radar>

  <Radar Name="Villahermosa MSSR" Type="SSR_ModeS" Elevation="196" MaxRange="250">
    <Lat>17.991352</Lat>
    <Long>-92.810148</Long>
  </Radar>

  <!--Radar Terresetre-->
  <Radar Name="MMAA_SMR" Type="SMR" Elevation="26" MaxRange="2">
    <Lat>16.758335</Lat>
    <Long>-99.754001</Long>
  </Radar>
  <Radar Name="MMAN_SMR" Type="SMR" Elevation="1486" MaxRange="2">
    <Lat>25.865611</Lat>
    <Long>-100.237222</Long>
  </Radar>
  <Radar Name="MMAS_SMR" Type="SMR" Elevation="6122" MaxRange="2">
    <Lat>21.705472</Lat>
    <Long>-102.317889</Long>
  </Radar>
  <Radar Name="MMBT_SMR" Type="SMR" Elevation="474" MaxRange="2">
    <Lat>15.775333</Lat>
    <Long>-96.262556</Long>
  </Radar>
  <Radar Name="MMCB_SMR" Type="SMR" Elevation="4305" MaxRange="2">
    <Lat>18.8345</Lat>
    <Long>-99.261583</Long>
  </Radar>
  <Radar Name="MMCE_SMR" Type="SMR" Elevation="20" MaxRange="2">
    <Lat>18.651972</Lat>
    <Long>-91.799556</Long>
  </Radar>
  <Radar Name="MMCL_SMR" Type="SMR" Elevation="115" MaxRange="2">
    <Lat>24.765056</Lat>
    <Long>-107.475167</Long>
  </Radar>
  <Radar Name="MMCM_SMR" Type="SMR" Elevation="49" MaxRange="2">
    <Lat>18.504639</Lat>
    <Long>-88.326806</Long>
  </Radar>
  <Radar Name="MMCN_SMR" Type="SMR" Elevation="215" MaxRange="2">
    <Lat>27.393056</Lat>
    <Long>-109.833389</Long>
  </Radar>
  <Radar Name="MMCP_SMR" Type="SMR" Elevation="44" MaxRange="2">
    <Lat>19.816806</Lat>
    <Long>-90.500306</Long>
  </Radar>
  <Radar Name="MMCS_SMR" Type="SMR" Elevation="3914" MaxRange="2">
    <Lat>31.636361</Lat>
    <Long>-106.42875</Long>
  </Radar>
  <Radar Name="MMCT_SMR" Type="SMR" Elevation="112" MaxRange="2">
    <Lat>20.641333</Lat>
    <Long>-88.446222</Long>
  </Radar>
  <Radar Name="MMCU_SMR" Type="SMR" Elevation="4475" MaxRange="2">
    <Lat>28.702333</Lat>
    <Long>-105.962972</Long>
  </Radar>
  <Radar Name="MMCV_SMR" Type="SMR" Elevation="771" MaxRange="2">
    <Lat>23.703444</Lat>
    <Long>-98.956444</Long>
  </Radar>
  <Radar Name="MMCZ_SMR" Type="SMR" Elevation="25" MaxRange="2">
    <Lat>20.522056</Lat>
    <Long>-86.929278</Long>
  </Radar>
  <Radar Name="MMDO_SMR" Type="SMR" Elevation="6114" MaxRange="2">
    <Lat>24.126028</Lat>
    <Long>-104.527472</Long>
  </Radar>
  <Radar Name="MMEP_SMR" Type="SMR" Elevation="3030" MaxRange="2">
    <Lat>21.419417</Lat>
    <Long>-104.842556</Long>
  </Radar>
  <Radar Name="MMES_SMR" Type="SMR" Elevation="76" MaxRange="2">
    <Lat>31.79525</Lat>
    <Long>-116.603694</Long>
  </Radar>
  <Radar Name="MMGL_SMR" Type="SMR" Elevation="5026" MaxRange="2">
    <Lat>20.521833</Lat>
    <Long>-103.311139</Long>
  </Radar>
  <Radar Name="MMGM_SMR" Type="SMR" Elevation="69" MaxRange="2">
    <Lat>27.969333</Lat>
    <Long>-110.923722</Long>
  </Radar>
  <Radar Name="MMHO_SMR" Type="SMR" Elevation="637" MaxRange="2">
    <Lat>29.095806</Lat>
    <Long>-111.047861</Long>
  </Radar>
  <Radar Name="MMIA_SMR" Type="SMR" Elevation="2477" MaxRange="2">
    <Lat>19.277028</Lat>
    <Long>-103.577611</Long>
  </Radar>
  <Radar Name="MMIO_SMR" Type="SMR" Elevation="4788" MaxRange="2">
    <Lat>25.549778</Lat>
    <Long>-100.928361</Long>
  </Radar>
  <Radar Name="MMIT_SMR" Type="SMR" Elevation="112" MaxRange="2">
    <Lat>16.449278</Lat>
    <Long>-95.093694</Long>
  </Radar>
  <Radar Name="MMLM_SMR" Type="SMR" Elevation="26" MaxRange="2">
    <Lat>25.685528</Lat>
    <Long>-109.081167</Long>
  </Radar>
  <Radar Name="MMLO_SMR" Type="SMR" Elevation="5966" MaxRange="2">
    <Lat>20.993306</Lat>
    <Long>-101.480972</Long>
  </Radar>
  <Radar Name="MMLP_SMR" Type="SMR" Elevation="79" MaxRange="2">
    <Lat>24.07275</Lat>
    <Long>-110.362556</Long>
  </Radar>
  <Radar Name="MMLT_SMR" Type="SMR" Elevation="46" MaxRange="2">
    <Lat>25.989889</Lat>
    <Long>-111.346972</Long>
  </Radar>
  <Radar Name="MMMA_SMR" Type="SMR" Elevation="35" MaxRange="2">
    <Lat>25.769944</Lat>
    <Long>-97.525222</Long>
  </Radar>
  <Radar Name="MMMD_SMR" Type="SMR" Elevation="48" MaxRange="2">
    <Lat>20.937028</Lat>
    <Long>-89.657694</Long>
  </Radar>
  <Radar Name="MMML_SMR" Type="SMR" Elevation="84" MaxRange="2">
    <Lat>32.630556</Lat>
    <Long>-115.241639</Long>
  </Radar>
  <Radar Name="MMMM_SMR" Type="SMR" Elevation="6043" MaxRange="2">
    <Lat>19.849861</Lat>
    <Long>-101.025389</Long>
  </Radar>
  <Radar Name="MMMT_SMR" Type="SMR" Elevation="46" MaxRange="2">
    <Lat>18.103333</Lat>
    <Long>-94.580611</Long>
  </Radar>
  <Radar Name="MMMV_SMR" Type="SMR" Elevation="1874" MaxRange="2">
    <Lat>26.9555</Lat>
    <Long>-101.471028</Long>
  </Radar>
  <Radar Name="MMMX_SMR" Type="SMR" Elevation="7307" MaxRange="2">
    <Lat>19.436389</Lat>
    <Long>-99.071972</Long>
  </Radar>
  <Radar Name="MMMY_SMR" Type="SMR" Elevation="1286" MaxRange="2">
    <Lat>25.778556</Lat>
    <Long>-100.106972</Long>
  </Radar>
  <Radar Name="MMMZ_SMR" Type="SMR" Elevation="48" MaxRange="2">
    <Lat>23.161472</Lat>
    <Long>-106.264583</Long>
  </Radar>
  <Radar Name="MMNL_SMR" Type="SMR" Elevation="494" MaxRange="2">
    <Lat>27.443361</Lat>
    <Long>-99.569917</Long>
  </Radar>
  <Radar Name="MMOX_SMR" Type="SMR" Elevation="4999" MaxRange="2">
    <Lat>16.998583</Lat>
    <Long>-96.726056</Long>
  </Radar>
  <Radar Name="MMPA_SMR" Type="SMR" Elevation="507" MaxRange="2">
    <Lat>20.602083</Lat>
    <Long>-97.460583</Long>
  </Radar>
  <Radar Name="MMPB_SMR" Type="SMR" Elevation="7371" MaxRange="2">
    <Lat>19.158139</Lat>
    <Long>-98.3715</Long>
  </Radar>
  <Radar Name="MMPE_SMR" Type="SMR" Elevation="98" MaxRange="2">
    <Lat>31.351889</Lat>
    <Long>-113.305389</Long>
  </Radar>
  <Radar Name="MMPG_SMR" Type="SMR" Elevation="911" MaxRange="2">
    <Lat>28.627361</Lat>
    <Long>-100.534417</Long>
  </Radar>
  <Radar Name="MMPN_SMR" Type="SMR" Elevation="5268" MaxRange="2">
    <Lat>19.396444</Lat>
    <Long>-102.038889</Long>
  </Radar>
  <Radar Name="MMPQ_SMR" Type="SMR" Elevation="175" MaxRange="2">
    <Lat>17.533028</Lat>
    <Long>-92.015583</Long>
  </Radar>
  <Radar Name="MMPR_SMR" Type="SMR" Elevation="33" MaxRange="2">
    <Lat>20.680083</Lat>
    <Long>-105.254194</Long>
  </Radar>
  <Radar Name="MMPS_SMR" Type="SMR" Elevation="304" MaxRange="2">
    <Lat>15.876917</Lat>
    <Long>-97.089083</Long>
  </Radar>
  <Radar Name="MMQT_SMR" Type="SMR" Elevation="6306" MaxRange="2">
    <Lat>20.617389</Lat>
    <Long>-100.185694</Long>
  </Radar>
  <Radar Name="MMRX_SMR" Type="SMR" Elevation="149" MaxRange="2">
    <Lat>26.008583</Lat>
    <Long>-98.22825</Long>
  </Radar>
  <Radar Name="MMSD_SMR" Type="SMR" Elevation="389" MaxRange="2">
    <Lat>23.152083</Lat>
    <Long>-109.72075</Long>
  </Radar>
  <Radar Name="MMSL_SMR" Type="SMR" Elevation="702" MaxRange="2">
    <Lat>22.948333</Lat>
    <Long>-109.938333</Long>
  </Radar>
  <Radar Name="MMSP_SMR" Type="SMR" Elevation="6045" MaxRange="2">
    <Lat>22.25425</Lat>
    <Long>-100.93075</Long>
  </Radar>
  <Radar Name="MMTC_SMR" Type="SMR" Elevation="3698" MaxRange="2">
    <Lat>25.568278</Lat>
    <Long>-103.410667</Long>
  </Radar>
  <Radar Name="MMTG_SMR" Type="SMR" Elevation="1501" MaxRange="2">
    <Lat>16.561833</Lat>
    <Long>-93.026083</Long>
  </Radar>
  <Radar Name="MMTJ_SMR" Type="SMR" Elevation="497" MaxRange="2">
    <Lat>32.541056</Lat>
    <Long>-116.969944</Long>
  </Radar>
  <Radar Name="MMTM_SMR" Type="SMR" Elevation="90" MaxRange="2">
    <Lat>22.289833</Lat>
    <Long>-97.864417</Long>
  </Radar>
  <Radar Name="MMTN_SMR" Type="SMR" Elevation="174" MaxRange="2">
    <Lat>22.037778</Lat>
    <Long>-98.806667</Long>
  </Radar>
  <Radar Name="MMTO_SMR" Type="SMR" Elevation="8476" MaxRange="2">
    <Lat>19.337083</Lat>
    <Long>-99.566028</Long>
  </Radar>
  <Radar Name="MMTP_SMR" Type="SMR" Elevation="107" MaxRange="2">
    <Lat>14.794361</Lat>
    <Long>-92.369972</Long>
  </Radar>
  <Radar Name="MMUN_SMR" Type="SMR" Elevation="32" MaxRange="2">
    <Lat>21.04275</Lat>
    <Long>-86.873194</Long>
  </Radar>
  <Radar Name="MMVA_SMR" Type="SMR" Elevation="56" MaxRange="2">
    <Lat>17.997028</Lat>
    <Long>-92.814806</Long>
  </Radar>
  <Radar Name="MMVR_SMR" Type="SMR" Elevation="100" MaxRange="2">
    <Lat>19.145778</Lat>
    <Long>-96.187361</Long>
  </Radar>
  <Radar Name="MMZC_SMR" Type="SMR" Elevation="7151" MaxRange="2">
    <Lat>22.897389</Lat>
    <Long>-102.685778</Long>
  </Radar>
  <Radar Name="MMZH_SMR" Type="SMR" Elevation="36" MaxRange="2">
    <Lat>17.601611</Lat>
    <Long>-101.460556</Long>
  </Radar>
  <Radar Name="MMZO_SMR" Type="SMR" Elevation="40" MaxRange="2">
    <Lat>19.14475</Lat>
    <Long>-104.558472</Long>
  </Radar>
</Radars>